[{"indirizzoP1":"via umbria napoli","latitudine":"40.89354","longitudine":"14.258068"},{"indirizzoP1":"via toledo napoli","latitudine":"40.845509","longitudine":"14.249201"},{"indirizzoP1":"via acton napoli","latitudine":"40.83649","longitudine":"14.252279"},{"indirizzoP2":"via abate gioacchino napoli","latitudine":"40.890178","longitudine":"14.259376"},{"indirizzoP2":"via alfonso ruta napoli","latitudine":"40.890678","longitudine":"14.25689"}]